City_ID,City,Lat,Lng,Max Temp,Humidity,Cloudiness,Wind Speed,Country,Date
0,margaret river,-33.95,115.0667,289.92,59,56,6.8,AU,1706983366
1,iqaluit,63.7506,-68.5145,248.0,69,20,5.14,CA,1706983445
2,vila velha,-20.3297,-40.2925,304.12,80,75,4.63,BR,1706983276
3,yellowknife,62.456,-114.3525,255.6,96,100,7.2,CA,1706983308
4,west island,-12.1568,96.8225,301.14,83,40,4.63,CC,1706983508
5,baneh,35.9975,45.8853,270.73,89,95,2.35,IR,1706983509
6,mil'kovo,55.6078,37.7956,271.37,89,99,3.83,RU,1706983418
7,talnakh,69.4865,88.3972,258.82,96,100,3.81,RU,1706983336
8,cestos city,5.46,-9.5828,302.06,75,100,4.15,LR,1706983511
9,santa fe de antioquia,6.5569,-75.8281,306.13,60,95,0.68,CO,1706983511
10,belmopan,17.25,-88.7667,303.36,45,2,2.03,BZ,1706983512
11,albany,42.6001,-73.9662,275.39,63,52,2.68,US,1706983206
12,grytviken,-54.2811,-36.5092,282.04,91,100,5.12,GS,1706983330
13,yoichi,43.2039,140.7703,270.84,73,79,5.2,JP,1706983402
14,waitangi,-43.9535,-176.5597,287.49,94,17,0.45,NZ,1706983267
15,lalibela,12.0333,39.0333,289.93,61,96,0.5,ET,1706983515
16,sao jose da coroa grande,-8.8978,-35.1478,302.84,61,65,4.54,BR,1706983515
17,olonkinbyen,70.9221,-8.7187,267.75,68,100,7.3,SJ,1706983344
18,peterhead,57.5058,-1.7981,280.37,74,100,9.42,GB,1706983517
19,luganville,-15.5333,167.1667,299.79,87,99,0.82,VU,1706983517
20,turkmenbasy,40.0222,52.9552,278.58,87,40,4.12,TM,1706983518
21,williamsport,41.2412,-77.0011,280.58,50,0,2.57,US,1706983518
22,tiksi,71.6872,128.8694,237.99,100,100,2.34,RU,1706983349
23,puerto ayora,-0.7393,-90.3518,304.13,79,55,5.02,EC,1706983280
24,kapa'a,22.0752,-159.319,293.76,54,11,3.13,US,1706983379
25,klyuchi,52.2667,79.1667,267.55,89,100,7.01,RU,1706983273
26,macael,37.3097,-2.3012,284.82,74,0,1.65,ES,1706983522
27,ilulissat,69.2167,-51.1,252.16,49,20,0.51,GL,1706983307
28,dunedin,-45.8742,170.5036,285.26,57,79,0.45,NZ,1706983376
29,edinburgh of the seven seas,-37.0676,-12.3116,289.19,72,26,9.6,SH,1706983412
30,adamstown,-25.066,-130.1015,297.79,75,89,1.65,PN,1706983390
31,thompson,55.7435,-97.8558,271.24,100,100,4.12,CA,1706983323
32,kruisfontein,-34.0033,24.7314,296.42,96,86,1.54,ZA,1706983336
33,port alfred,-33.5906,26.891,296.03,92,47,0.89,ZA,1706983407
34,angaur state,6.906,134.13,300.81,80,24,10.14,PW,1706983527
35,quisqueya,18.5554,-69.4081,301.56,58,32,3.71,DO,1706983528
36,kailua-kona,19.6406,-155.9956,295.13,85,0,14.4,US,1706983529
37,sorong,-0.8833,131.25,300.24,85,54,5.98,ID,1706983340
38,college,64.8569,-147.8028,234.51,63,100,1.54,US,1706983273
39,timaru,-44.4,171.25,282.08,93,72,1.34,NZ,1706983531
40,utrik,11.2278,169.8474,299.56,76,28,9.32,MH,1706983371
41,bethel,41.3712,-73.414,278.47,59,14,1.79,US,1706983359
42,avarua,-21.2078,-159.775,298.18,94,75,2.06,CK,1706983321
43,puerto natales,-51.7236,-72.4875,289.4,36,20,11.83,CL,1706983333
44,tabou,4.423,-7.3528,302.01,73,100,4.0,CI,1706983534
45,tsiombe,-25.3,45.4833,297.22,77,25,7.18,MG,1706983535
46,viqueque,-8.8673,126.3658,299.05,90,73,1.76,TL,1706983536
47,kill devil hills,36.0307,-75.676,281.15,74,75,5.66,US,1706983537
48,wanning,18.8003,110.3967,294.75,93,15,2.83,CN,1706983539
49,blackmans bay,-43.0167,147.3167,288.44,86,100,2.04,AU,1706983415
50,codrington,-38.2667,141.9667,287.09,91,16,2.72,AU,1706983337
51,bandarbeyla,9.4942,50.8122,298.45,79,99,6.41,SO,1706983544
52,varkaus,62.3153,27.873,269.99,89,77,3.34,FI,1706983546
53,rongelap,11.1635,166.8941,299.61,81,32,9.31,MH,1706983387
54,harper,4.375,-7.7169,301.99,73,100,3.95,LR,1706983547
55,port mathurin,-19.6833,63.4167,299.88,72,20,7.15,MU,1706983306
56,choibalsan,48.0667,114.5,248.78,90,1,1.98,MN,1706983550
57,kodiak,57.79,-152.4072,268.88,86,100,2.06,US,1706983486
58,labrador city,52.9463,-66.9114,258.1,51,40,0.0,CA,1706983439
59,mahad,18.0833,73.4167,297.01,41,25,0.91,IN,1706983552
60,port-aux-francais,-49.35,70.2167,280.68,77,59,2.96,TF,1706983350
61,hamilton,39.1834,-84.5333,282.17,66,0,3.09,US,1706983157
62,stanthorpe,-28.6667,151.95,292.83,97,90,2.1,AU,1706983554
63,new shagunnu,10.3396,4.4688,303.58,25,3,3.16,NG,1706983555
64,houghton,47.1219,-88.569,278.53,58,0,0.0,US,1706983556
65,arraial do cabo,-22.9661,-42.0278,304.13,74,75,8.75,BR,1706983329
66,qaqortoq,60.7167,-46.0333,254.73,69,4,3.62,GL,1706983408
67,castillos,-34.1667,-53.8333,305.23,37,68,4.97,UY,1706983558
68,alofi,-19.0595,-169.9187,298.09,100,100,1.54,NU,1706983558
69,ust-nera,64.5667,143.2,246.61,99,99,1.97,RU,1706983397
70,cascais,38.6979,-9.4215,290.89,73,0,3.58,PT,1706983560
71,udachny,66.4167,112.4,241.91,90,87,1.28,RU,1706983483
72,klamath falls,42.2249,-121.7817,275.3,93,100,1.54,US,1706983389
73,antofagasta,-23.65,-70.4,298.75,67,6,4.01,CL,1706983561
74,rodolfo sanchez taboada,31.7167,-116.5667,287.65,74,32,1.95,MX,1706983308
75,inhambane,-23.865,35.3833,298.08,78,91,3.31,MZ,1706983332
76,edd,13.9297,41.6925,297.88,75,70,6.4,ER,1706983419
77,nola,40.922,14.5329,286.84,60,0,0.95,IT,1706983564
78,iskateley,67.6803,53.1512,260.38,86,20,6.26,RU,1706983425
79,bac lieu,9.285,105.7244,297.33,90,10,3.08,VN,1706983565
80,hawaiian paradise park,19.5933,-154.9731,292.88,90,100,6.69,US,1706983566
81,badger,64.8,-147.5333,234.46,58,100,1.54,US,1706983390
82,tromso,69.6496,18.957,270.16,100,100,0.0,NO,1706983410
83,bilibino,68.0546,166.4372,244.53,79,1,3.28,RU,1706983475
84,ancud,-41.8697,-73.8203,288.8,59,76,4.01,CL,1706983569
85,chimoio,-19.1164,33.4833,291.95,91,29,1.58,MZ,1706983569
86,siocon,7.7061,122.1353,298.4,85,19,1.42,PH,1706983570
87,andrews,32.3187,-102.5457,286.71,29,0,13.38,US,1706983571
88,daxing,39.7214,116.3292,264.13,41,99,1.31,CN,1706983572
89,ushuaia,-54.8,-68.3,283.96,66,75,5.14,AR,1706983423
90,tuensang,26.2833,94.8333,280.93,90,2,1.05,IN,1706983573
91,cromer,52.9312,1.2989,285.28,87,94,7.29,GB,1706983574
92,dzhalagash,45.0833,64.6667,268.66,90,100,2.66,KZ,1706983575
93,saint-philippe,-21.3585,55.7679,297.92,76,78,4.66,RE,1706983420
94,mount pearl,47.5166,-52.7813,271.4,87,100,7.72,CA,1706983576
95,kiunga,-6.1219,141.2906,296.31,100,100,0.62,PG,1706983577
96,alice springs,-23.7,133.8833,302.71,30,75,4.12,AU,1706983360
97,weno,7.4515,151.8468,298.12,100,100,3.6,FM,1706983578
98,atmore,31.0238,-87.4939,293.09,51,84,3.59,US,1706983579
99,la passe,45.5549,-0.8967,280.28,89,33,3.17,FR,1706983579
100,puerto baquerizo moreno,-0.9,-89.6,301.7,79,40,6.69,EC,1706983458
101,khandyga,62.6667,135.6,230.24,100,70,1.01,RU,1706983466
102,luwuk,-0.9516,122.7875,298.97,84,99,1.65,ID,1706983367
103,geraldton,-28.7667,114.6,294.38,73,100,11.83,AU,1706983357
104,invercargill,-46.4,168.35,284.27,78,96,1.79,NZ,1706983468
105,georgetown,5.4112,100.3354,302.11,87,20,1.03,MY,1706983371
106,dudinka,69.4058,86.1778,259.08,94,100,5.36,RU,1706983584
107,necochea,-38.5473,-58.7368,296.67,56,3,9.47,AR,1706983584
108,lata,40.1629,-8.3327,286.32,72,10,0.29,PT,1706983393
109,whitehorse,60.7161,-135.0538,243.58,76,75,2.06,CA,1706983298
110,enewetak,11.3474,162.3373,299.63,84,61,9.92,MH,1706983335
111,susuman,62.7833,148.1667,245.94,99,100,1.99,RU,1706983410
112,beaufort west,-32.3567,22.583,299.16,48,78,6.31,ZA,1706983587
113,nishinoomote,30.7333,131.0,289.64,90,100,8.79,JP,1706983588
114,uliastay,47.7417,96.8444,261.51,96,100,1.21,MN,1706983487
115,aasiaat,68.7098,-52.8699,242.5,97,43,2.39,GL,1706983590
116,burang,30.25,81.1667,263.3,83,35,2.25,CN,1706983591
117,korla,41.7597,86.1469,267.11,84,13,2.92,CN,1706983592
118,nili,33.7218,66.1302,267.55,62,20,1.91,AF,1706983592
119,la ronge,55.1001,-105.2842,274.29,86,100,3.6,CA,1706983394
120,saint-pierre,-21.3393,55.4781,297.97,73,0,6.17,RE,1706983463
121,nuuk,64.1835,-51.7216,261.49,56,40,5.66,GL,1706983391
122,plymstock,50.36,-4.0905,284.64,98,99,2.24,GB,1706983596
123,hermanus,-34.4187,19.2345,298.6,70,88,5.41,ZA,1706983306
124,lebu,-37.6167,-73.65,290.63,67,3,10.31,CL,1706983384
125,kalmunai,7.4167,81.8167,298.54,84,60,2.82,LK,1706983598
126,chegdomyn,51.1167,133.0167,241.67,100,83,0.77,RU,1706983599
127,bayanhongor,46.7167,100.1167,257.94,97,100,0.83,MN,1706983600
128,betio village,1.358,172.9211,302.17,76,100,7.1,KI,1706983600
129,charles city,43.0664,-92.6724,274.37,100,100,5.14,US,1706983601
130,amga,60.8953,131.9608,240.89,100,100,0.48,RU,1706983602
131,borogontsy,62.6683,131.1683,231.08,100,63,1.3,RU,1706983602
132,colonia,50.9333,6.95,284.16,89,75,6.69,DE,1706983391
133,fort st. john,56.2499,-120.8529,267.25,40,1,0.56,CA,1706983603
134,puerto cabezas,14.0351,-83.3888,301.13,83,20,2.06,NI,1706983582
135,tabas,33.5959,56.9244,279.85,47,33,0.86,IR,1706983605
136,kone,-21.0595,164.8658,298.99,91,98,2.53,NC,1706983606
137,vadso,70.0744,29.7487,270.24,86,100,8.23,NO,1706983362
138,praia,14.9215,-23.5087,301.45,42,57,6.69,CV,1706983607
139,wailua homesteads,22.0669,-159.378,293.01,68,12,3.13,US,1706983262
140,longyearbyen,78.2186,15.6401,262.06,79,0,6.69,SJ,1706983447
141,tazovsky,67.4667,78.7,258.72,93,100,2.98,RU,1706983398
142,punta arenas,-53.15,-70.9167,285.21,58,75,8.75,CL,1706983193
143,constantia,44.1833,28.65,276.53,73,48,5.22,RO,1706983305
144,barra de santo antonio,-9.4047,-35.5072,304.75,66,65,4.6,BR,1706983612
145,stanley,54.868,-1.6985,280.16,77,20,8.23,GB,1706983613
146,milford haven,51.7128,-5.0341,283.77,100,95,8.26,GB,1706983614
147,ca mau,9.1769,105.15,295.78,91,15,1.94,VN,1706983614
148,petropavlovsk-kamchatsky,53.0452,158.6483,253.48,85,0,4.0,RU,1706983323
149,papatowai,-46.5619,169.4708,282.28,71,88,4.11,NZ,1706983616
150,mbandaka,0.0487,18.2603,300.02,65,90,0.76,CD,1706983617
151,bojonegoro,-7.1502,111.8817,297.73,93,100,1.55,ID,1706983617
152,karratha,-20.7377,116.8463,300.23,75,44,9.24,AU,1706983299
153,chibougamau,49.9168,-74.3659,268.56,71,86,3.1,CA,1706983619
154,tangalle,6.024,80.7911,297.45,88,61,3.23,LK,1706983438
155,'ali sabieh,11.1558,42.7125,297.22,86,58,5.58,DJ,1706983620
156,zabaykal'sk,49.6333,117.3167,244.57,96,7,1.66,RU,1706983620
157,nuku'alofa,-21.1333,-175.2,299.34,94,75,0.51,TO,1706983621
158,egilsstadir,65.2653,-14.3948,266.11,68,16,3.99,IS,1706983622
159,cidreira,-30.1811,-50.2056,299.74,70,0,6.48,BR,1706983622
160,cidade velha,14.9167,-23.6167,301.41,42,48,6.69,CV,1706983623
161,lihue,21.9789,-159.3672,293.92,61,100,11.83,US,1706983478
162,san antonio de pale,-1.4014,5.6325,301.67,74,60,3.69,GQ,1706983433
163,belyy yar,53.6039,91.3903,257.09,100,40,0.0,RU,1706983625
164,morehead city,34.7229,-76.726,284.28,60,7,3.13,US,1706983616
165,quellon,-43.1167,-73.6167,288.54,53,50,3.42,CL,1706983449
166,murzuq,25.9155,13.9184,285.44,28,0,3.15,LY,1706983411
167,lichuan,30.3,108.85,271.41,96,100,1.55,CN,1706983628
168,saipan,15.1355,145.701,299.54,69,75,8.75,MP,1706983629
169,holualoa,19.6228,-155.9522,293.06,85,0,14.4,US,1706983630
170,port isabel,26.0734,-97.2086,298.19,77,100,8.23,US,1706983500
171,merritt island,28.5392,-80.672,297.59,55,0,3.6,US,1706983472
172,ribeira grande,38.5167,-28.7,291.37,77,20,8.05,PT,1706983477
173,nalut,30.3333,10.85,286.65,46,92,4.28,LY,1706983632
174,mount darwin,-16.7725,31.5838,294.54,78,75,1.37,ZW,1706983633
175,mossel bay,-34.1831,22.146,296.13,85,100,3.19,ZA,1706983633
176,mount gambier,-37.8333,140.7667,286.3,94,2,1.71,AU,1706983384
177,swansea,51.6208,-3.9432,283.88,97,100,2.68,GB,1706983406
178,swakopmund,-22.6833,14.5333,293.14,85,99,2.68,NA,1706983635
179,uruzgan,32.8333,66.0,276.58,38,12,3.07,AF,1706983636
180,bredasdorp,-34.5322,20.0403,297.6,72,87,3.77,ZA,1706983393
181,pontes e lacerda,-15.2261,-59.3353,297.38,87,46,0.67,BR,1706983418
182,isafjordur,66.0755,-23.124,268.16,90,100,3.45,IS,1706983304
183,tarnobrzeg,50.573,21.6794,282.2,82,100,8.03,PL,1706983639
184,jamestown,42.097,-79.2353,279.0,76,0,1.34,US,1706983610
185,lompoc,34.6391,-120.4579,287.0,68,100,2.57,US,1706983453
186,znamenskoye,57.1281,73.8282,250.59,100,86,2.13,RU,1706983642
187,grants,35.1473,-107.8514,276.28,52,40,12.35,US,1706983643
188,uturoa,-16.7333,-151.4333,300.92,74,93,5.04,PF,1706983643
189,knyaze-volkonskoye,48.4642,135.4567,251.48,98,49,3.13,RU,1706983644
190,queenstown,-31.8976,26.8753,296.76,61,77,3.59,ZA,1706983645
191,san patricio,28.017,-97.5169,294.91,50,34,6.5,US,1706983403
192,dolores,-36.3132,-57.6792,313.97,12,3,5.39,AR,1706983646
193,chonchi,-42.6128,-73.8092,293.9,39,51,1.09,CL,1706983647
194,vernon,50.2581,-119.2691,277.76,96,100,0.51,CA,1706983462
195,howard springs,-12.497,131.047,301.1,94,98,3.79,AU,1706983648
196,broken hill,-31.95,141.4333,300.76,17,98,4.14,AU,1706983648
197,port saint john's,-31.6229,29.5448,297.3,88,96,4.75,ZA,1706983320
198,isiolo,0.3546,37.5822,297.62,61,95,2.42,KE,1706983649
199,axim,4.8699,-2.2405,301.08,77,53,3.12,GH,1706983651
200,rovaniemi,66.5,25.7167,268.82,93,0,4.63,FI,1706983651
201,usinsk,65.9939,57.5281,253.75,93,50,2.68,RU,1706983390
202,arkhangel'sk,64.5401,40.5433,267.21,100,100,3.0,RU,1706983652
203,luderitz,-26.6481,15.1594,294.41,81,5,4.68,NA,1706983425
204,palmer,42.1584,-72.3287,277.12,47,20,6.17,US,1706983415
205,taro,-8.3862,115.28,297.15,96,100,0.42,ID,1706983654
206,mcalester,34.9334,-95.7697,288.2,77,100,5.66,US,1706983655
207,guayaramerin,-10.8368,-65.3614,306.12,57,36,0.84,BO,1706983655
208,tyler,32.3513,-95.3011,288.18,87,100,7.72,US,1706983507
209,sanibel,26.449,-82.0223,296.52,56,0,0.89,US,1706983537
210,port lincoln,-34.7333,135.8667,292.42,67,0,1.81,AU,1706983657
211,sumbe,-11.2061,13.8437,300.89,78,97,3.6,AO,1706983658
212,mucumpiz,8.4167,-71.1333,292.28,78,83,1.57,VE,1706983658
213,kuraymah,18.55,31.85,291.28,18,52,4.84,SD,1706983659
214,west end,26.6833,-78.9667,296.14,67,30,3.76,BS,1706983660
215,cuyo,10.8525,121.0086,299.62,86,4,8.04,PH,1706983660
216,tual,-5.6667,132.75,301.94,79,72,5.06,ID,1706983661
217,troitskoye,52.9821,84.6757,264.31,92,100,3.38,RU,1706983662
218,sisimiut,66.9395,-53.6735,252.94,89,93,3.07,GL,1706983663
219,haiku-pauwela,20.9219,-156.3051,293.73,72,75,6.69,US,1706983663
220,barcelos,41.5388,-8.6151,289.73,80,25,1.4,PT,1706983452
221,hirara,24.8,125.2833,295.54,82,5,0.66,JP,1706983665
222,tongliao,43.6125,122.2653,252.34,88,5,2.09,CN,1706983665
223,twin falls,42.3505,-114.6445,276.34,60,20,8.23,US,1706983666
224,puerto asis,0.5133,-76.5007,301.58,74,99,1.22,CO,1706983667
225,la'ie,21.6477,-157.9253,294.81,57,9,4.47,US,1706983668
226,ayorou,14.7308,0.9174,299.24,13,55,4.77,NE,1706983668
227,memphis,35.1495,-90.049,294.43,46,75,4.12,US,1706983553
228,chabahar,25.2919,60.643,295.83,57,97,7.96,IR,1706983670
229,bom jesus,-9.0744,-44.3586,302.63,60,95,1.3,BR,1706983670
230,tokar,18.4254,37.729,294.99,56,21,3.03,SD,1706983671
231,yemetsk,63.4721,41.7941,257.39,99,83,2.18,RU,1706983671
232,san juan bautista,-14.0108,-75.7358,303.42,50,99,3.36,PE,1706983673
233,westerland,54.9079,8.3033,279.27,93,40,7.72,DE,1706983673
234,lasem,-6.6922,111.4527,298.38,89,100,4.14,ID,1706983675
235,bambanglipuro,-7.95,110.2833,298.7,86,100,2.17,ID,1706983675
236,isiro,2.7739,27.616,296.11,42,40,0.95,CD,1706983676
237,revda,56.801,59.9303,262.91,95,100,2.71,RU,1706983676
238,san fernando de apure,7.8878,-67.4724,311.87,28,77,1.58,VE,1706983677
239,lerwick,60.1545,-1.1494,278.15,73,96,12.22,GB,1706983678
240,afaahiti,-17.75,-149.2833,301.08,74,81,3.97,PF,1706983480
241,phan rang-thap cham,11.5667,108.9833,294.65,91,45,2.49,VN,1706983679
242,dingtao,35.0683,115.5625,270.85,58,93,2.05,CN,1706983680
243,walvis bay,-22.9575,14.5053,293.2,83,91,4.08,NA,1706983681
244,ghadamis,30.1337,9.5007,286.46,56,56,2.29,LY,1706983681
245,santo antonio,-6.3106,-35.4789,305.06,47,97,6.36,BR,1706983682
246,tralee,52.2704,-9.7026,284.29,93,100,3.09,IE,1706983377
247,portland,45.5234,-122.6762,282.78,87,40,0.89,US,1706983445
248,kavaratti,10.5669,72.642,299.7,69,38,2.23,IN,1706983440
249,port blair,11.6667,92.75,298.17,88,9,0.0,IN,1706983432
250,longboat key,27.4125,-82.659,295.5,56,0,2.06,US,1706983386
251,al bawiti,28.3492,28.8659,283.65,42,0,2.59,EG,1706983686
252,fort mcmurray,56.7268,-111.381,269.92,93,100,4.63,CA,1706983597
253,pitiquito,30.7,-112.0833,287.31,49,0,1.11,MX,1706983687
254,zadar,44.1197,15.2422,280.49,87,0,1.54,HR,1706983688
255,kalemie,-5.9475,29.1947,296.03,86,68,0.34,CD,1706983689
256,lenger,42.183,69.8839,266.84,77,100,1.85,KZ,1706983689
257,lincoln,40.8,-96.667,279.1,95,100,4.63,US,1706983690
258,nikolayevsk-on-amure,53.1406,140.73,249.0,99,50,1.85,RU,1706983690
259,konarka,19.9,86.1167,296.37,87,25,0.46,IN,1706983691
260,remire-montjoly,4.9167,-52.2667,305.17,62,20,5.14,GF,1706983692
261,diego de almagro,-26.3667,-70.05,302.7,29,14,6.74,CL,1706983693
262,yuzhno-kurilsk,44.0306,145.8556,268.91,71,92,6.35,RU,1706983693
263,redding,40.5865,-122.3917,281.02,89,100,1.34,US,1706983595
264,anadyr,64.75,177.4833,253.43,70,0,3.58,RU,1706983694
265,sarmiento,-45.5882,-69.07,291.67,17,9,2.74,AR,1706983695
266,aykhal,66.0,111.5,245.63,65,84,1.62,RU,1706983414
267,pacific grove,36.6177,-121.9166,284.5,83,100,2.68,US,1706983696
268,praia da vitoria,38.7333,-27.0667,291.35,82,40,4.97,PT,1706983434
269,malini,47.4667,26.0833,281.16,78,100,2.99,RO,1706983697
270,muisne,0.6,-80.0333,301.05,76,84,4.06,EC,1706983698
271,camayenne,9.535,-13.6878,300.91,70,0,5.41,GN,1706983699
272,gorodoviki,46.1353,41.9656,275.38,72,100,5.97,RU,1706983699
273,port douglas,-16.4833,145.4667,300.15,83,96,1.36,AU,1706983559
274,benguela,-12.5763,13.4055,301.55,71,88,2.03,AO,1706983701
275,port augusta,-32.5,137.7667,298.02,45,75,2.5,AU,1706983701
276,artesia,33.8658,-118.0831,289.31,66,0,2.57,US,1706983702
277,vorgashor,67.5833,63.95,255.19,90,100,4.98,RU,1706983465
278,nar'yan-mar,67.6713,53.087,260.43,86,20,6.26,RU,1706983703
279,fukuecho,32.6881,128.8419,284.44,88,100,10.2,JP,1706983704
280,el calafate,-50.3408,-72.2768,285.93,42,36,4.45,AR,1706983704
281,plastun,44.7561,136.2939,256.48,81,3,4.18,RU,1706983705
282,tofol,5.3248,163.0078,301.16,80,100,8.74,FM,1706983706
283,chifeng,42.2683,118.9636,259.54,77,8,1.7,CN,1706983707
284,basco,20.4487,121.9702,297.34,88,0,7.67,PH,1706983707
285,taoudenni,22.6783,-3.9836,296.13,9,5,5.13,ML,1706983708
286,bonadelle ranchos-madera ranchos,36.9847,-119.8746,284.86,73,84,2.09,US,1706983709
287,le port,-20.9373,55.2919,298.15,79,76,1.65,RE,1706983709
288,chita,52.0333,113.55,243.13,68,19,0.0,RU,1706983710
289,gamba,-2.65,10.0,300.21,83,77,3.11,GA,1706983711
290,kenora,49.8167,-94.4337,274.46,74,5,2.57,CA,1706983711
291,princeville,45.7668,-61.2985,272.51,96,100,5.36,CA,1706983712
292,sitka,57.0531,-135.33,274.09,80,100,3.09,US,1706983472
293,rabo de peixe,37.8,-25.5833,290.92,99,20,5.14,PT,1706983713
294,manokwari,-0.8667,134.0833,298.86,81,44,2.08,ID,1706983714
295,vilyuysk,63.7553,121.6247,245.37,98,96,2.24,RU,1706983715
296,sasovo,54.3537,41.9199,264.33,95,97,3.13,RU,1706983715
297,tazacorte,28.629,-17.9293,294.69,68,20,1.03,ES,1706983451
298,st. john's,47.5649,-52.7093,271.86,87,82,8.94,CA,1706983698
299,bemidji,47.4736,-94.8803,272.2,100,100,2.57,US,1706983717
300,tomelloso,39.1522,-3.0243,286.22,39,0,3.66,ES,1706983717
301,port-vila,-17.7338,168.3219,300.38,86,96,5.23,VU,1706983718
302,tateyama,34.9833,139.8667,281.63,83,100,1.35,JP,1706983719
303,mazagao,-0.115,-51.2894,304.18,54,98,2.71,BR,1706983719
304,kununurra,-15.7667,128.7333,301.14,94,22,4.63,AU,1706983720
305,yuzhnyy,53.2542,83.6936,265.36,81,100,6.0,RU,1706983720
306,carnarvon,-24.8667,113.6333,296.54,81,2,10.6,AU,1706983721
307,port elizabeth,-33.918,25.5701,297.65,95,100,3.09,ZA,1706983258
308,vitry-le-francois,48.7333,4.5833,281.63,90,100,4.06,FR,1706983722
309,talavera,15.6167,120.9333,295.2,89,10,1.2,PH,1706983723
310,polyarnyy,69.1989,33.4478,267.92,78,96,13.22,RU,1706983724
311,hobyo,5.3505,48.5268,299.27,82,31,6.68,SO,1706983725
312,semey,50.4111,80.2275,264.69,80,98,5.0,KZ,1706983725
313,dryden,49.7833,-92.7503,270.31,86,0,4.12,CA,1706983452
314,uchiza,-8.4592,-76.4633,297.63,94,97,0.84,PE,1706983727
315,daru,-9.0763,143.2092,299.6,87,94,2.95,PG,1706983728
316,urengoy,65.9667,78.3667,256.23,96,100,2.03,RU,1706983432
317,hakui,36.8833,136.7833,277.71,79,100,2.37,JP,1706983729
318,hengchun,22.0042,120.7439,296.66,82,94,6.39,TW,1706983730
319,aquin,18.2833,-73.4,298.73,71,31,2.14,HT,1706983731
320,kedrovyy,56.1667,91.8167,254.74,100,97,1.62,RU,1706983731
321,bobrovytsya,50.75,31.3833,277.96,89,100,7.67,UA,1706983732
322,la jagua de ibirico,9.5623,-73.3341,301.76,81,99,1.92,CO,1706983733
323,fale old settlement,-9.3852,-171.2468,301.95,80,100,8.84,TK,1706983734
324,esperanza,19.5847,-70.9849,300.54,68,45,0.89,DO,1706983734
325,cabo san lucas,22.8909,-109.9124,297.93,42,3,1.34,MX,1706983273
326,ola,59.5833,151.2833,254.36,79,99,4.66,RU,1706983404
327,crane,31.3974,-102.3501,286.82,30,0,15.23,US,1706983736
328,tselinnoye,53.0833,85.6667,263.34,95,100,2.2,RU,1706983737
329,kamyshin,50.0983,45.416,269.61,92,89,5.72,RU,1706983737
330,fisterra,42.9049,-9.2629,289.12,79,22,2.09,ES,1706983459
331,spearfish,44.4908,-103.8594,281.63,88,40,5.66,US,1706983619
332,salinas,36.6777,-121.6555,284.72,81,75,7.2,US,1706983740
333,oranjemund,-28.55,16.4333,294.07,89,44,2.62,NA,1706983742
334,gunjur,13.2019,-16.7339,308.19,17,3,3.6,GM,1706983743
335,tamuin,21.9833,-98.75,308.3,17,0,6.72,MX,1706983743
336,porto velho,-8.7619,-63.9039,305.18,55,40,1.54,BR,1706983744
337,hadibu,12.65,54.0333,298.07,76,82,3.24,YE,1706983745
338,gadzhiyevo,69.2551,33.3362,267.47,79,96,13.14,RU,1706983437
339,le vauclin,14.5452,-60.8388,302.18,70,75,3.09,MQ,1706983746
340,new norfolk,-42.7826,147.0587,289.22,93,100,0.69,AU,1706983747
341,santa terezinha,-29.9002,-50.0904,299.69,72,0,6.38,BR,1706983747
342,kovdor,67.5662,30.4758,267.57,93,100,5.51,RU,1706983748
343,palikir - national government center,6.9248,158.1611,299.56,89,100,3.09,FM,1706983749
344,shalqar,47.8333,59.6,272.49,93,100,6.09,KZ,1706983750
345,jining,35.405,116.5814,271.08,52,84,1.78,CN,1706983723
346,kudahuvadhoo,2.6708,72.8944,300.98,80,86,5.09,MV,1706983751
347,pico truncado,-46.7949,-67.9573,291.11,14,6,2.45,AR,1706983751
348,ciudad lazaro cardenas,17.9583,-102.2,300.28,59,2,3.29,MX,1706983752
349,priozersk,61.0393,30.1291,273.2,86,100,4.87,RU,1706983753
350,canyon lake,29.8752,-98.2625,293.39,55,60,2.68,US,1706983753
351,rehoboth,-23.3167,17.0833,299.41,46,96,5.24,NA,1706983754
352,flin flon,54.7682,-101.865,275.44,90,28,2.21,CA,1706983755
353,malax,62.9423,21.5731,275.12,62,0,6.69,FI,1706983755
354,fujinomiya,35.2167,138.6167,277.92,93,100,0.6,JP,1706983756
355,bongaree,-27.0797,153.1586,297.16,85,8,0.75,AU,1706983757
356,garachico,28.7781,-17.7646,293.21,64,20,1.03,ES,1706983757
357,mount isa,-20.7333,139.5,297.02,94,100,6.69,AU,1706983758
358,floro,61.5996,5.0328,278.13,56,40,14.92,NO,1706983759
359,buka,40.8108,69.1986,274.77,75,100,1.71,UZ,1706983760
360,pisco,-13.7,-76.2167,300.18,65,75,4.12,PE,1706983481
361,kudymkar,59.0173,54.656,262.77,95,100,3.65,RU,1706983761
362,dana point,33.467,-117.6981,289.57,72,41,3.13,US,1706983762
363,wamba,8.9333,8.6,301.09,16,16,1.58,NG,1706983763
364,carbonear,47.7332,-53.2148,272.12,86,100,7.11,CA,1706983763
365,puerto aysen,-45.4,-72.7,293.15,31,77,1.89,CL,1706983764
366,tura,25.5198,90.2201,286.03,33,0,1.61,IN,1706983388
367,zeya,53.75,127.2667,243.98,99,8,1.29,RU,1706983765
368,novoishimskiy,53.1981,66.7694,270.84,96,99,4.99,KZ,1706983766
369,owando,-0.4819,15.8999,300.95,56,100,1.08,CG,1706983767
370,rio preto da eva,-2.6994,-59.6997,305.31,57,61,1.39,BR,1706983535
371,happy valley-goose bay,53.3168,-60.3315,258.95,81,6,0.69,CA,1706983769
372,uyar,55.81,94.3153,258.18,99,100,1.29,RU,1706983769
373,wad az zaki,14.4619,32.2065,294.89,14,23,5.28,SD,1706983770
374,khon kaen,16.5,102.0833,297.46,54,18,1.8,TH,1706983770
375,waingapu,-9.6567,120.2641,299.71,88,98,3.11,ID,1706983771
376,as sulayyil,20.4607,45.5779,289.29,23,0,6.73,SA,1706983772
377,poronaysk,49.2167,143.1167,251.16,96,12,1.91,RU,1706983773
378,hargeysa,9.56,44.065,291.12,91,49,7.53,SO,1706983525
379,uricani,45.3373,23.1524,275.53,94,91,2.66,RO,1706983774
380,selfoss,63.9331,-20.9971,269.29,66,100,9.98,IS,1706983775
381,nouadhibou,20.931,-17.0347,301.14,20,32,2.06,MR,1706983775
382,vermillion,42.7794,-96.9292,274.24,80,96,6.6,US,1706983776
383,nemuro,43.3236,145.575,267.64,69,26,6.3,JP,1706983407
384,hidalgo,20.5,-99.0,295.84,15,0,7.64,MX,1706983777
385,kongsvinger,60.1905,11.9977,276.52,68,31,6.07,NO,1706983778
386,east london,-33.0153,27.9116,295.67,88,20,4.12,ZA,1706983267
387,dampit,-8.2116,112.7493,295.15,98,100,0.93,ID,1706983779
388,mao,39.8885,4.2658,285.46,82,0,2.06,ES,1706983780
389,greenbrier,36.4276,-86.8047,290.05,58,0,2.57,US,1706983780
390,mogadishu,2.0371,45.3438,299.53,82,48,9.91,SO,1706983782
391,inirida,3.8653,-67.9239,302.74,76,91,0.87,CO,1706983782
392,urucara,-2.5364,-57.76,303.47,66,95,1.88,BR,1706983783
393,jose panganiban,14.2906,122.6917,297.02,95,21,2.75,PH,1706983784
394,amplepuis,45.9726,4.3316,278.53,94,59,1.23,FR,1706983784
395,acarau,-2.8856,-40.12,302.89,65,85,7.96,BR,1706983785
396,san nicolas,18.1725,120.5953,297.06,80,3,2.01,PH,1706983785
397,souillac,-20.5167,57.5167,297.79,69,64,4.38,MU,1706983786
398,salmon arm,50.6998,-119.3024,277.28,82,97,0.68,CA,1706983787
399,mournies,35.4764,24.0092,284.17,87,40,0.0,GR,1706983788
400,minas de marcona,-15.2119,-75.1103,296.84,61,66,5.25,PE,1706983788
401,kingston,17.997,-76.7936,303.28,58,20,2.57,JM,1706983431
402,klaipeda,55.7172,21.1175,278.18,82,35,13.78,LT,1706983790
403,westport,41.1415,-73.3579,278.86,51,0,6.69,US,1706983532
404,illapel,-31.6308,-71.1653,304.92,30,0,4.26,CL,1706983791
405,kapuskasing,49.4169,-82.4331,273.2,69,20,4.12,CA,1706983348
406,siaya,0.0612,34.2882,294.41,72,77,2.02,KE,1706983792
407,baiao,-2.7906,-49.6717,304.85,55,99,0.89,BR,1706983793
408,bamboo flat,11.7,92.7167,297.2,94,10,1.03,IN,1706983793
409,tekkali,18.6167,84.2333,295.16,89,32,0.32,IN,1706983794
410,ventspils,57.3894,21.5606,278.11,87,0,7.72,LV,1706983795
411,ketchikan,55.3422,-131.6461,275.14,86,100,1.54,US,1706983795
412,mar del plata,-38.0023,-57.5575,299.16,53,0,9.39,AR,1706983505
413,la almunia de dona godina,41.4767,-1.3745,288.25,60,9,0.92,ES,1706983797
414,flying fish cove,-10.4217,105.6791,296.97,94,13,0.0,CX,1706983798
415,broome,42.2506,-75.833,275.13,77,75,3.09,US,1706983799
416,bichura,50.5881,107.6022,254.22,95,54,0.72,RU,1706983799
417,chemolgan,43.1897,76.5292,262.96,66,67,2.78,KZ,1706983800
418,almeirim,-1.5233,-52.5817,305.9,50,99,2.67,BR,1706983801
419,hithadhoo,-0.6,73.0833,301.66,75,99,3.5,MV,1706983802
420,greymouth,-42.4667,171.2,285.39,82,96,2.26,NZ,1706983802
421,mirpur sakro,24.5474,67.6277,296.42,73,24,5.48,PK,1706983803
422,ankang,32.68,109.0172,273.95,78,98,1.89,CN,1706983804
423,mejit,10.2753,170.8646,299.69,78,67,10.22,MH,1706983805
424,danilovka,50.3557,44.1168,270.46,92,95,6.27,RU,1706983805
425,phang nga,8.4509,98.5298,299.17,86,16,1.15,TH,1706983806
426,bel ombre,-4.6167,55.4167,302.15,73,82,4.6,SC,1706983807
427,el granada,37.5027,-122.4694,284.72,89,100,1.54,US,1706983807
428,ust'-kut,56.7938,105.7672,243.8,100,75,0.9,RU,1706983808
429,drama,41.1544,24.1394,282.41,63,7,1.19,GR,1706983809
430,vila franca do campo,37.7167,-25.4333,291.42,99,19,3.91,PT,1706983809
431,union city,37.5958,-122.0192,284.91,85,75,2.06,US,1706983810
432,kete krachi,7.7939,-0.0498,304.96,28,46,1.74,GH,1706983811
433,saynshand,44.8824,110.1163,249.36,97,27,0.76,MN,1706983811
434,tindouf,27.6711,-8.1474,290.35,8,23,4.42,DZ,1706983812
435,howrah,22.5892,88.3103,293.15,77,0,1.54,IN,1706983813
436,oblivskaya,48.5362,42.5014,272.45,84,100,7.46,RU,1706983813
437,toliara,-23.35,43.6667,298.44,83,79,1.21,MG,1706983814
438,nyurba,63.2842,118.3319,249.69,93,99,2.93,RU,1706983815
439,hollymead,38.1171,-78.4417,283.93,49,0,0.45,US,1706983816
440,usogorsk,63.4106,48.6872,265.19,95,100,3.48,RU,1706983816
441,saldanha,-33.0117,17.9442,302.18,81,89,1.04,ZA,1706983358
442,murghob,38.1702,73.9667,258.63,79,81,2.23,TJ,1706983818
443,newberry,34.2746,-81.6187,287.31,45,2,3.05,US,1706983819
444,megion,61.0296,76.1136,256.16,100,86,4.18,RU,1706983819
445,virac,13.6333,124.2167,294.44,85,28,4.58,PH,1706983820
446,jayapura,-2.5333,140.7,296.81,89,74,1.46,ID,1706983532
447,quezon,7.7303,125.0989,296.71,93,77,1.88,PH,1706983822
448,sokur,55.2093,83.319,264.35,94,100,5.98,RU,1706983823
449,dakhla,23.6848,-15.958,294.95,54,96,5.71,EH,1706983824
450,ilabaya,-17.4208,-70.5133,299.49,49,7,5.37,PE,1706983825
451,dauphin,51.1494,-100.0502,274.23,100,100,1.54,CA,1706983826
452,pangody,65.85,74.4859,256.12,97,100,2.73,RU,1706983827
453,illintsi,49.1048,29.2177,278.74,88,100,9.47,UA,1706983828
454,olyokminsk,60.3736,120.4264,239.47,100,83,1.29,RU,1706983830
455,esquel,-42.9,-71.3167,293.07,25,44,1.67,AR,1706983830
456,bonthe,7.5264,-12.505,302.22,64,0,5.53,SL,1706983832
457,whakatane,-37.9585,176.9854,284.55,92,0,2.86,NZ,1706983833
458,enchanted hills,35.3368,-106.593,281.51,48,93,7.6,US,1706983834
459,dawei,14.0833,98.2,294.59,82,3,1.14,MM,1706983835
460,mari-turek,56.7895,49.6235,265.43,95,100,3.72,RU,1706983836
461,kharan,28.5833,65.4167,289.04,32,92,6.21,PK,1706983837
462,zouerate,22.7187,-12.4521,297.32,10,37,4.86,MR,1706983838
463,alnashi,56.1874,52.4792,267.13,95,100,6.32,RU,1706983838
464,atafu village,-8.5421,-172.5159,302.08,76,100,8.64,TK,1706983839
465,blagoveshchenka,52.8333,79.8667,267.32,95,100,7.51,RU,1706983840
466,rawson,-43.3002,-65.1023,292.46,26,5,11.12,AR,1706983841
467,la mitra,8.8422,-79.7867,306.08,61,69,2.92,PA,1706983841
468,cabedelo,-6.9811,-34.8339,304.52,62,73,6.69,BR,1706983842
469,dali,25.7,100.1833,276.46,89,2,2.69,CN,1706983843
470,shantobe,52.4581,68.1839,270.45,95,100,6.69,KZ,1706983843
471,juankoski,63.0667,28.35,271.13,91,73,2.73,FI,1706983844
472,antsiranana,-12.2787,49.2917,298.44,90,98,0.51,MG,1706983845
473,suncho corral,-27.9336,-63.4294,318.47,13,66,5.15,AR,1706983845
474,menongue,-14.6585,17.691,293.6,86,100,1.2,AO,1706983846
475,sabzevar,36.2126,57.6819,274.25,80,51,1.16,IR,1706983847
476,kolonia town,6.964,158.206,300.15,89,100,3.09,FM,1706983847
477,brisas de zicatela,15.8369,-97.0419,302.44,70,75,7.72,MX,1706983848
478,tolanaro,-25.0319,46.9987,298.19,83,20,8.23,MG,1706983370
479,galliano,29.4422,-90.2992,289.15,92,100,7.74,US,1706983850
480,bereznik,62.8551,42.7072,256.84,100,91,2.13,RU,1706983850
481,worland,44.0169,-107.9554,278.79,82,75,3.09,US,1706983851
482,kutum,14.2,24.6667,290.84,21,45,4.94,SD,1706983852
483,arar,30.9753,41.0381,284.16,58,75,2.06,SA,1706983852
484,sacaba,20.5833,-89.9833,305.38,38,0,3.4,MX,1706983853
485,novodvinsk,64.4165,40.8122,267.01,98,77,3.27,RU,1706983853
486,klaksvik,62.2266,-6.589,275.66,73,100,12.93,FO,1706983854
487,sake,-1.5736,29.045,292.0,90,99,1.1,CD,1706983855
488,kleinblittersdorf,49.1578,7.0373,281.92,95,100,6.17,DE,1706983856
489,urangan,-25.3,152.9,296.59,91,4,2.68,AU,1706983856
490,nyaungdon,17.0333,95.65,292.21,78,0,2.02,MM,1706983857
491,ormond-by-the-sea,29.3491,-81.0665,295.38,60,0,4.12,US,1706983858
492,samarinda,-0.5,117.15,296.32,95,100,1.31,ID,1706983858
493,najran,17.4924,44.1277,290.51,33,28,2.44,SA,1706983859
494,sanga-sanga,5.0725,119.7853,299.65,82,98,2.03,PH,1706983860
495,arno,60.1167,18.6333,276.92,68,70,7.07,SE,1706983860
496,naze,28.3667,129.4833,292.0,87,34,4.55,JP,1706983861
497,kalyazin,57.2403,37.8433,267.53,96,100,4.43,RU,1706983862
498,bezenchuk,52.982,49.4333,266.65,91,100,5.64,RU,1706983862
499,yuktae-dong,40.0247,128.1597,270.75,88,61,1.8,KP,1706983863
500,touros,-5.1989,-35.4608,302.27,68,57,7.13,BR,1706983864
501,okhotsk,59.3833,143.3,248.11,76,10,7.57,RU,1706983864
502,peruibe,-24.32,-46.9983,299.27,82,90,1.99,BR,1706983865
503,sao joao de pirabas,-0.7747,-47.1772,302.55,65,18,4.0,BR,1706983784
504,carutapera,-1.195,-46.02,301.21,72,95,4.06,BR,1706983866
505,gargalianoi,37.0667,21.6333,283.9,73,41,0.78,GR,1706983867
506,hilo,19.7297,-155.09,293.0,84,100,6.69,US,1706983461
507,wotho,10.1657,166.0102,299.82,84,50,9.78,MH,1706983868
508,katsuren-haebaru,26.3369,127.8719,296.58,90,100,2.57,JP,1706983869
509,sogndal,61.2283,7.1003,275.36,69,100,9.26,NO,1706983870
510,illizi,26.4833,8.4667,286.25,24,0,2.95,DZ,1706983870
511,hiratacho,35.4333,132.8167,279.0,87,100,5.43,JP,1706983871
512,pundong,-7.9522,110.3486,298.44,89,98,2.34,ID,1706983872
513,san luis de la loma,17.2706,-100.8939,302.61,50,2,4.88,MX,1706983873
514,shrigonda,18.6167,74.6833,297.32,29,22,3.47,IN,1706983873
515,qamdo,31.1667,97.2333,260.39,30,58,1.29,CN,1706983874
516,oamaru,-45.0784,170.9801,282.72,63,75,3.14,NZ,1706983450
517,khamis mushait,18.3064,42.7292,287.49,82,0,5.14,SA,1706983875
518,ponta delgada,37.7333,-25.6667,291.59,72,20,5.14,PT,1706983876
519,mrakovo,52.7161,56.6244,265.6,92,100,4.56,RU,1706983877
520,puerto ayacucho,5.6639,-67.6236,306.51,52,72,0.64,VE,1706983878
521,coquimbo,-29.9533,-71.3436,295.0,73,40,6.69,CL,1706983485
522,altai,46.3722,96.2583,255.8,93,100,1.4,MN,1706983879
523,belabo,4.9333,13.3,299.05,26,52,1.29,CM,1706983880
524,smithers,54.7804,-127.1743,266.81,86,20,1.01,CA,1706983881
525,cururupu,-1.8283,-44.8683,304.24,53,74,3.31,BR,1706983883
526,guerrero negro,27.9769,-114.0611,290.31,55,2,6.89,MX,1706983884
527,nelson bay,-32.7167,152.15,295.93,90,26,3.13,AU,1706983884
528,gantang,26.92,119.6333,285.65,96,100,1.13,CN,1706983885
529,melouza,35.98,4.1867,282.74,58,3,0.4,DZ,1706983886
530,manismata,-2.4667,111.0333,297.14,95,100,1.07,ID,1706983887
531,taltal,-25.4,-70.4833,295.15,72,19,1.94,CL,1706983888
532,kichmengskiy gorodok,59.9816,45.7854,252.48,100,94,1.59,RU,1706983890
533,tangermunde,52.5446,11.9765,283.07,80,100,7.81,DE,1706983891
534,morbi,22.8167,70.8333,297.39,38,0,3.5,IN,1706983891
535,sao luis de montes belos,-16.525,-50.3722,297.05,74,100,1.43,BR,1706983892
536,wanxian,30.8039,108.3897,277.86,98,100,2.21,CN,1706983893
537,quepos,9.4236,-84.1652,303.55,61,14,2.81,CR,1706983420
538,igarka,67.4667,86.5833,260.42,96,100,4.24,RU,1706983894
539,partizansk,43.1258,133.1339,258.82,94,5,1.69,RU,1706983895
540,the pas,53.8251,-101.2541,273.16,100,100,3.6,CA,1706983896
541,bengkulu,-3.8004,102.2655,297.52,90,100,2.59,ID,1706983434
542,shingu,33.7333,135.9833,279.64,99,100,0.22,JP,1706983897
543,nuevo baztan,40.3673,-3.2413,287.29,63,3,1.3,ES,1706983898
544,tidjikja,18.5564,-11.4271,299.3,8,0,5.53,MR,1706983899
545,verkhniy mamon,50.1635,40.3832,272.61,96,100,7.76,RU,1706983899
546,chicholi,21.4667,79.6833,293.19,37,0,1.9,IN,1706983900
547,sharqpur sharif,31.4633,74.1,285.22,70,41,3.27,PK,1706983901
548,truth or consequences,33.1284,-107.2528,283.66,29,0,15.43,US,1706983902
549,kiffa,16.6166,-11.4045,303.73,7,7,4.84,MR,1706983902
550,kembe,4.6228,21.8865,300.25,25,50,0.37,CF,1706983903
551,rio grande,-32.035,-52.0986,306.21,62,3,5.33,BR,1706983784
552,sao gabriel da cachoeira,-0.1303,-67.0892,304.99,67,90,1.04,BR,1706983861
553,ouadda,8.0777,22.4007,298.01,18,98,3.25,CF,1706983905
554,spassk,52.747,87.7545,255.87,100,96,1.76,RU,1706983906
555,keflavik,64.0049,-22.5624,271.1,100,100,10.29,IS,1706983330
556,novogrudok,53.6,25.8333,276.24,85,100,7.93,BY,1706983907
557,kisangani,0.5167,25.2,302.63,35,79,0.58,CD,1706983908
558,namibe,-15.1961,12.1522,299.31,81,96,2.85,AO,1706983446
559,kargasok,59.0556,80.8572,257.57,98,90,3.13,RU,1706983909
560,tongouson,5.0214,120.1328,299.88,83,99,1.38,PH,1706983910
561,nabisar,25.0685,69.6419,294.35,43,28,2.36,PK,1706983911
562,puerto tirol,-27.3722,-59.0821,314.31,12,4,2.18,AR,1706983912
563,road town,18.4167,-64.6167,301.17,61,20,2.57,VG,1706983913
